header: panel1 1
  seq: 6283
  stamp:
    secs: 126
    nsecs: 420000000
  frame_id: "map"
child_frame_id: "jackal0/base_link"
pose:
  pose:
    position:
      x: -6.46472265917
      y: -16.6318222088
      z: 0.999086411322
    orientation:
      x: 1.5930247943e-05
      y: 1.8802479848e-05
      z: -0.674025996468
      w: 0.738707625166
  covariance: [0.02101693664847484, 5.780795590006835e-16, 9.254340827183695e-12, -1.40237270269878e-26, -2.7318048802632497e-24, 2.783255179919393e-21, 5.780793852425687e-16, 0.02101693664846769, -7.323865609519491e-11, -1.7912674987002092e-26, 2.977356854948996e-23, 2.569994627363178e-22, 9.254340827183722e-12, -7.323865609519482e-11, 7.544950612485282, 3.362458136518183e-22, -6.076701305190372e-19, 2.376027627040822e-28, -1.4023727026987797e-26, -1.7912674987002086e-26, 3.362458136518182e-22, 1.041214750867779e-08, 1.3005436345709326e-31, 2.510796266881802e-24, -2.7318048802632493e-24, 2.9773568549489965e-23, -6.076701305190371e-19, 1.3005437507510508e-31, 1.041214750867779e-08, 1.2681570483538102e-28, 2.783255179919392e-21, 2.5699946273631775e-22, 2.376027627040821e-28, 2.510796266881802e-24, 1.2681570483538387e-28, 9.99999166668332e-10]
twist:
  twist:
    linear:
      x: 0.000154153241107
      y: 1.07934687563e-07
      z: 6.16943110357e-12
    angular:
      x: 0.000154296989664
      y: -0.000933179491886
      z: -0.000401365309925
  covariance: [0.0016272423635410207, 5.511361091063062e-20, -4.3780354886739084e-14, -1.0946666045471016e-78, -4.3345597804426745e-75, 5.746219021803218e-81, 5.511356802475702e-20, 0.001627242363541019, -1.6288428192638529e-15, 3.9135156078594924e-77, -1.553549106248511e-76, 2.333979296658173e-77, -4.3780354886739084e-14, -1.6288428192638501e-15, 0.002290909900982537, 2.2538459723079285e-83, -3.093649301504575e-79, 6.03860053970377e-83, -1.0946666045471028e-78, 3.913515607859498e-77, 2.2538459723079168e-83, 9.95049383604457e-07, 1.4672147425006721e-27, -4.0484146142992493e-22, -4.3345597804426725e-75, -1.553549106248512e-76, -3.093649301504572e-79, 1.4672147425007465e-27, 9.95049383604457e-07, -7.500036290099945e-24, 5.746219021801438e-81, 2.3339792966581696e-77, 6.038600539703754e-83, -4.0484146142992484e-22, -7.500036290099948e-24, 9.975124224135921e-07]
---
header: panel1 2
  seq: 9147
  stamp:
    secs: 183
    nsecs: 700000000
  frame_id: "map"
child_frame_id: "jackal0/base_link"
pose:
  pose:
    position:
      x: -5.15769193016
      y: -16.8707244716
      z: 0.99901783017
    orientation:
      x: 1.67528897258e-05
      y: 1.80804073882e-05
      z: -0.705377218451
      w: 0.708832123343
  covariance: [0.03502716094727673, -5.2927698318568303e-17, 4.8040915320681005e-12, -1.4410636342554663e-26, -1.46472811908029e-25, 2.798758757410347e-21, -5.2927747929475546e-17, 0.03502716094726241, -1.0882311170355627e-10, -4.513747004687772e-27, 3.0022440793720247e-23, 1.4066987367416213e-23, 4.80409153206809e-12, -1.0882311170355615e-10, 10.984166114128927, 9.006367763623389e-23, -6.084728135541302e-19, -8.6022632750583e-29, -1.4410636342554651e-26, -4.513747004687773e-27, 9.00636776362339e-23, 1.041214750867779e-08, -2.7494303581852406e-32, -3.5836642355002236e-24, -1.4647281190802903e-25, 3.0022440793720247e-23, -6.084728135541301e-19, -2.749429988511646e-32, 1.041214750867779e-08, -2.6788407601108343e-29, 2.798758757410346e-21, 1.4066987367416204e-23, -8.602263275058293e-29, -3.5836642355002236e-24, -2.678840760110833e-29, 9.99999166668332e-10]
twist:
  twist:
    linear:
      x: 0.000154452963476
      y: 2.65577309604e-08
      z: -5.85230662461e-12
    angular:
      x: -0.00225381910983
      y: -0.000777962239773
      z: -0.00152122758311
  covariance: [0.0016274207471061082, 3.5501953028050994e-20, -3.0900918936235254e-14, -9.249640922179636e-109, -3.5509726622181225e-105, 8.200158121839088e-115, 3.5501953467161264e-20, 0.0016274207471061073, -1.0523056631295878e-15, 3.6965343219810153e-106, -1.4346108558910149e-106, 2.7109991666715874e-111, -3.090091893623527e-14, -1.052305663129589e-15, 0.0022909534916535175, 8.04684158521779e-112, -2.5374530051002416e-109, 6.444083085358733e-117, -9.24964092217967e-109, 3.6965343219810177e-106, 8.046841585217774e-112, 9.950493836044536e-07, 1.4219065070809846e-27, -4.049833222686566e-22, -3.550972662218128e-105, -1.4346108558910156e-106, -2.5374530051002373e-109, 1.4219065070809799e-27, 9.950493836044536e-07, -7.265718190782074e-24, 8.20015812183894e-115, 2.7109991666715944e-111, 6.444083085358722e-117, -4.0498332226865666e-22, -7.265718190782077e-24, 9.975124224135907e-07]
---
header: panel1 3
  seq: 10751
  stamp:
    secs: 215
    nsecs: 780000000
  frame_id: "map"
child_frame_id: "jackal0/base_link"
pose:
  pose:
    position:
      x: -3.06059549561
      y: -17.0840486488
      z: 0.998908973515
    orientation:
      x: 1.73147499423e-05
      y: 1.61466654166e-05
      z: -0.756400542824
      w: 0.654108720515
  covariance: [0.039033111695970894, -7.197705428942233e-16, -1.4666554232888285e-11, -1.3210791086914015e-25, 2.7240743867453452e-24, 1.8083638654851913e-21, -7.197710458244807e-16, 0.03903311169596749, -1.2421578127181238e-10, 1.8529909962489114e-26, 1.868399037066171e-23, -2.635586022006673e-22, -1.466655423288827e-11, -1.2421578127181186e-10, 12.910314508727822, 1.5214463934473633e-23, -3.974175355030888e-19, -2.4785232484744738e-29, -1.321079108691401e-25, 1.852990996248912e-26, 1.5214463934473636e-23, 1.0412147508677788e-08, 1.9676101540526781e-31, 1.1848212448643985e-24, 2.7240743867453452e-24, 1.8683990370661707e-23, -3.974175355030888e-19, 1.9676102217202774e-31, 1.041214750867779e-08, 1.9959369183033183e-28, 1.8083638654851913e-21, -2.635586022006673e-22, -2.4785232484744735e-29, 1.1848212448643983e-24, 1.9959369183033183e-28, 9.99999166668332e-10]
twist:
  twist:
    linear:
      x: 9.36019338588e-05
      y: 7.85507118444e-09
      z: 1.11380549336e-11
    angular:
      x: 0.00227307976869
      y: 0.000280073537446
      z: -0.00160137652162
  covariance: [0.0016298133432826076, 4.871681252177132e-20, -2.7740583020347906e-14, 8.80647611426931e-118, -1.4613427331313364e-114, -3.916477796136546e-125, 4.871681312221192e-20, 0.0016298133432826067, -1.4649555189070573e-15, 2.0738412918412318e-116, -1.8826692209082384e-115, 6.636711658313949e-122, -2.7740583020347928e-14, -1.4649555189070587e-15, 0.0022919192732276305, 1.3575867770450605e-121, -1.05150564016452e-118, 2.3014269213853748e-127, 8.80647611426933e-118, 2.073841291841233e-116, 1.3575867770450624e-121, 9.950493836044604e-07, 1.3672179515689692e-27, -3.892114043847063e-22, -1.4613427331313371e-114, -1.8826692209082388e-115, -1.0515056401645213e-118, 1.3672179515689855e-27, 9.950493836044604e-07, -7.273741040890684e-24, -3.9164777961367224e-125, 6.636711658313957e-122, 2.3014269213853772e-127, -3.8921140438470653e-22, -7.273741040890685e-24, 9.97512422413594e-07]
---
header: panel2 1
  seq: 17573
  stamp:
    secs: 352
    nsecs: 220000000
  frame_id: "map"
child_frame_id: "jackal0/base_link"
pose:
  pose:
    position:
      x: -17.4410495764
      y: -12.6728866299
      z: 0.998119274525
    orientation:
      x: 1.6785187761e-05
      y: 1.78493484473e-05
      z: -0.712877346157
      w: 0.701288734214
  covariance: [0.011007724369423398, -2.4953896535005287e-17, 2.360626658827825e-12, -9.629567151239983e-23, -1.5460751287543205e-22, -1.865524960228093e-17, -2.4953939152563217e-17, 0.011007724369424501, -3.2773224658907565e-11, 2.5126627156050653e-22, -9.431734074627395e-21, -1.930343320903606e-19, 2.360626658827829e-12, -3.277322465890769e-11, 21.102535086661355, -5.196774684704519e-18, 1.9426645275918094e-16, 9.667853791132615e-25, -9.629567151239983e-23, 2.512662715605066e-22, -5.196774684704518e-18, 1.0412147510414558e-08, -9.696365402291247e-29, -3.751403464979195e-21, -1.5460751287543208e-22, -9.431734074627398e-21, 1.9426645275918099e-16, -9.696369166753472e-29, 1.0412147510414566e-08, -9.565452909049714e-26, -1.865524960228094e-17, -1.9303433209036067e-19, 9.667853791132618e-25, -3.751403464979197e-21, -9.565452909049713e-26, 9.999991666763766e-10]
twist:
  twist:
    linear:
      x: -5.40412776189e-05
      y: -3.500732206e-07
      z: -1.12456532461e-12
    angular:
      x: -0.000825929654241
      y: -0.000518370989474
      z: -0.000258151896878
  covariance: [0.0010938671638648905, 3.2499659417774045e-20, -2.396523640901859e-14, -7.866592672959835e-53, 1.8027028338240791e-50, 8.122812903392174e-52, 3.249965531017955e-20, 0.00109386716386489, -8.952012682423104e-16, 1.6744979598685952e-52, 4.498356793374649e-52, -1.875703772459493e-49, -2.396523640901858e-14, -8.952012682423108e-16, 0.0014461244726335534, -4.67554179678145e-57, 1.1669351762681378e-54, -4.0883364801875355e-55, -7.86659267295984e-53, 1.674497959868597e-52, -4.6755417967814545e-57, 9.950493777257233e-07, 1.769597384169012e-24, -2.805051697390961e-19, 1.802702833824077e-50, 4.498356793374645e-52, 1.1669351762681377e-54, 1.769597384167831e-24, 9.950493777257233e-07, -1.782990876019267e-20, 8.12281290339217e-52, -1.8757037724594958e-49, -4.088336480187532e-55, -2.8050516973909595e-19, -1.7829908760192666e-20, 9.975120733317172e-07]
---
header: panel2 2
  seq: 19455
  stamp:
    secs: 389
    nsecs: 860000000
  frame_id: "map"
child_frame_id: "jackal0/base_link"
pose:
  pose:
    position:
      x: -15.8535348124
      y: -13.1954111747
      z: 0.997936842089
    orientation:
      x: 1.7222976542e-05
      y: 1.83582731275e-05
      z: -0.708968778647
      w: 0.705239867187
  covariance: [0.043032981761347566, -2.631030709491946e-16, 4.173351811378538e-12, 1.1740242144347224e-25, -2.940768070619553e-25, -5.095745538395088e-21, -2.6310313058810365e-16, 0.04303298176131096, -1.331193533366528e-10, 1.078309510997823e-25, -5.570496411242196e-23, 1.7053027020075835e-23, 4.17335181137854e-12, -1.3311935333665246e-10, 23.362546264364852, -2.146848976266211e-21, 1.106259091281412e-18, -1.1414729366780377e-27, 1.1740242144347221e-25, 1.0783095109978227e-25, -2.1468489762662106e-21, 1.041214750867779e-08, -1.8062372009364495e-32, 1.8970741297146925e-24, -2.940768070619554e-25, -5.570496411242195e-23, 1.1062590912814119e-18, -1.8062380440780773e-32, 1.0412147508677788e-08, -1.721588031368049e-29, -5.095745538395088e-21, 1.7053027020075838e-23, -1.141472936678038e-27, 1.897074129714692e-24, -1.721588031368191e-29, 9.99999166668332e-10]
twist:
  twist:
    linear:
      x: -0.000380402673315
      y: -6.64330264597e-07
      z: -1.53732569325e-11
    angular:
      x: 0.00150755700138
      y: 0.00130867100286
      z: -0.000592682618027
  covariance: [0.001627421313231393, 2.6008330244533323e-20, -2.5891232999831786e-14, -1.6683343238138516e-128, 1.4741715594785644e-125, -1.7224958476306634e-136, 2.6008334763886562e-20, 0.0016274213132314, -8.059319077859229e-16, 3.0651464186834184e-127, 1.093379193194709e-126, -1.9635017440799923e-134, -2.5891232999831754e-14, -8.059319077859234e-16, 0.002290953941945215, -5.204418027490862e-133, 1.0897765980317372e-129, -5.818595865969671e-140, -1.668334323813851e-128, 3.06514641868341e-127, -5.204418027490886e-133, 9.950493836044674e-07, 1.4482439598810973e-27, -4.1375777715095404e-22, 1.474171559478561e-125, 1.0933791931947072e-126, 1.0897765980317398e-129, 1.4482439598811121e-27, 9.950493836044674e-07, -7.241607532208838e-24, -1.7224958476306565e-136, -1.9635017440799926e-134, -5.818595865969678e-140, -4.137577771509542e-22, -7.241607532208835e-24, 9.975124224135977e-07]
---
header: panel2 3
  seq: 21904
  stamp:
    secs: 438
    nsecs: 840000000
  frame_id: "map"
child_frame_id: "jackal0/base_link"
pose:
  pose:
    position:
      x: -13.8953967043
      y: -13.8359622816
      z: 0.997815616661
    orientation:
      x: 1.61678496273e-05
      y: 1.9040177421e-05
      z: -0.671838671791
      w: 0.740697508071
  covariance: [0.04193302700379389, 4.272046708331062e-16, 1.6590766161052544e-11, -1.202212047199594e-26, 3.1412758131139277e-24, -2.9664360151897e-21, 4.2720429651796445e-16, 0.041933027003788294, -1.267962411003498e-10, 5.39609610951362e-26, -3.214161438851694e-23, -2.950580178725214e-22, 1.659076616105254e-11, -1.2679624110034976e-10, 26.30344987952179, -1.1000530760098488e-21, 6.469390806940181e-19, -9.616878916513417e-28, -1.2022120471995945e-26, 5.39609610951362e-26, -1.100053076009849e-21, 1.0412147508677788e-08, 1.5106550547932e-31, 3.104158690523597e-24, 3.141275813113929e-24, -3.214161438851694e-23, 6.469390806940182e-19, 1.5106550828333871e-31, 1.041214750867779e-08, 1.452647783350876e-28, -2.9664360151896987e-21, -2.950580178725214e-22, -9.616878916513417e-28, 3.1041586905235966e-24, 1.452647783350876e-28, 9.99999166668332e-10]
twist:
  twist:
    linear:
      x: -0.000237086226735
      y: -3.46725573251e-07
      z: -3.77948886607e-13
    angular:
      x: 0.000332975913584
      y: 0.000555710964741
      z: 1.42782067143e-05
  covariance: [0.0016297954692701718, 3.034160057795043e-20, -2.7090801240721374e-14, -4.764372474597865e-126, 5.344965162689202e-123, -8.339720108901583e-135, 3.034156523825232e-20, 0.0016297954692701773, -8.254623889168257e-16, -1.3576588582535163e-126, 9.322117665233845e-126, -2.7064401951022105e-132, -2.7090801240721333e-14, -8.254623889168279e-16, 0.002291917885820909, -3.5324503423032893e-130, 3.930408254654353e-127, -6.42578056991377e-138, -4.7643724745978506e-126, -1.3576588582535158e-126, -3.5324503423032897e-130, 9.950493836044536e-07, 1.3162165088655098e-27, -4.104230610645646e-22, 5.3449651626892e-123, 9.32211766523374e-126, 3.9304082546543586e-127, 1.3162165088655114e-27, 9.950493836044536e-07, -6.638354596417514e-24, -8.339720108901953e-135, -2.706440195102213e-132, -6.425780569913766e-138, -4.104230610645647e-22, -6.638354596417514e-24, 9.975124224135905e-07]
---
header: panel3 1
  seq: 25127
  stamp:
    secs: 503
    nsecs: 300000000
  frame_id: "map"
child_frame_id: "jackal0/base_link"
pose:
  pose:
    position:
      x: -22.4119568843
      y: -9.66280780396
      z: 0.9971921018
    orientation:
      x: 2.21223642584e-05
      y: 1.0013779983e-05
      z: -0.925779961844
      w: 0.378062774759
  covariance: [0.01491124296411639, -2.4741997397233254e-14, -3.288057662142594e-11, 1.4518393428341798e-25, -8.999224628782238e-23, -8.385222775216597e-21, -2.4741997112558805e-14, 0.014911242964117452, -3.5635275953015203e-11, -1.0633997894487805e-26, -8.820829011882711e-23, 8.541846074407704e-21, -3.288057662142581e-11, -3.563527595301513e-11, 30.17380691811439, -1.9835367448454334e-21, 2.5993609345984378e-18, 1.1785864039126952e-28, 1.4518393428341798e-25, -1.0633997894487805e-26, -1.983536744845434e-21, 1.0412147508677788e-08, -1.4074012501107619e-31, -3.2853555704818162e-25, -8.999224628782239e-23, -8.820829011882712e-23, 2.599360934598438e-18, -1.4074011267054562e-31, 1.041214750867779e-08, -1.3921531311735364e-28, -8.385222775216594e-21, 8.541846074407703e-21, 1.178586403912696e-28, -3.2853555704818167e-25, -1.3921531311735653e-28, 9.99999166668332e-10]
twist:
  twist:
    linear:
      x: -0.000843497348012
      y: -5.9908372891e-07
      z: -3.71343330698e-11
    angular:
      x: 0.00142493154159
      y: 0.000528148681441
      z: -0.000503509683399
  covariance: [0.001627419187142199, 6.318261174051613e-20, -5.0413834777596225e-14, -1.5241942658460966e-61, 1.6007465084717992e-58, 1.1409828552580388e-61, 6.318178603736651e-20, 0.0016274191871422173, -1.876710484611216e-15, -8.297978047191258e-60, 2.011223009378905e-60, -1.1255419080172236e-58, -5.041383477759616e-14, -1.876710484611186e-15, 0.0022909516739227313, -3.0756317824465712e-65, 1.1112592171454122e-62, -2.658027053940422e-64, -1.5241942658461831e-61, -8.297978047191261e-60, -3.075631782446582e-65, 9.950493836044674e-07, 1.4730188413453552e-27, -3.9890875040566583e-22, 1.6007465084717975e-58, 2.0112230093787604e-60, 1.1112592171454139e-62, 1.473018841345333e-27, 9.950493836044674e-07, -7.639447125170072e-24, 1.1409828552570196e-61, -1.1255419080172234e-58, -2.658027053940423e-64, -3.989087504056657e-22, -7.639447125170068e-24, 9.975124224135977e-07]
---
header: panel3 2
  seq: 26876
  stamp:
    secs: 538
    nsecs: 280000000
  frame_id: "map"
child_frame_id: "jackal0/base_link"
pose:
  pose:
    position:
      x: -21.3420593312
      y: -11.0053538985
      z: 0.997071151516
    orientation:
      x: 2.19808093431e-05
      y: 1.49342540405e-05
      z: -0.936336836968
      w: 0.351103014841
  covariance: [0.014012206891694665, 2.1768864853519432e-16, -1.6529621482385746e-11, -2.346966534040452e-26, 9.392362862315905e-24, 7.39618202849911e-22, 2.1768825512139816e-16, 0.014012206891695569, -4.520798735440691e-11, 1.3656465959812172e-25, 8.196427108637729e-24, -8.573572140005992e-22, -1.6529621482385788e-11, -4.520798735440707e-11, 32.274083658994215, -1.402919098031531e-21, -2.464333575059126e-19, -4.931420348855072e-28, -2.3469665340404515e-26, 1.3656465959812172e-25, -1.4029190980315313e-21, 1.0412147508677788e-08, 4.5804639395715265e-31, 1.384943239059266e-24, 9.392362862315908e-24, 8.196427108637726e-24, -2.4643335750591254e-19, 4.580463990478819e-31, 1.041214750867779e-08, 4.254889286565638e-28, 7.39618202849911e-22, -8.57357214000599e-22, -4.931420348855073e-28, 1.3849432390592663e-24, 4.254889286565866e-28, 9.99999166668332e-10]
twist:
  twist:
    linear:
      x: 4.56177034979e-05
      y: -4.35920008421e-07
      z: 5.52704653028e-11
    angular:
      x: 0.00168951870279
      y: -0.00127643402404
      z: -0.000683762004865
  covariance: [0.0016298129601037452, 3.5445667481270555e-19, -5.959104950197582e-14, -2.4998325491644007e-59, -7.095529186184981e-57, 3.1550256388487797e-59, 3.5445631793075475e-19, 0.0016298129601037428, -4.784809685529798e-15, -3.4636517483115438e-59, -1.49759034269952e-57, 9.002709582639992e-57, -5.959104950197584e-14, -4.784809685529779e-15, 0.0022919192569727026, -2.2445694075947196e-63, -5.4244501436983465e-61, 1.0458958557015035e-61, -2.499832549164404e-59, -3.463651748311539e-59, -2.2445694075947207e-63, 9.950493836044536e-07, 1.0477804868253541e-26, -4.248030417204545e-22, -7.09552918618498e-57, -1.4975903426995157e-57, -5.4244501436983486e-61, 1.0477804868253549e-26, 9.950493836044536e-07, -5.104953788485674e-23, 3.1550256388488456e-59, 9.002709582640001e-57, 1.0458958557015044e-61, -4.248030417204543e-22, -5.1049537884856763e-23, 9.975124224135905e-07]
---
header: panel3 3
  seq: 28976
  stamp:
    secs: 580
    nsecs: 282000000
  frame_id: "map"
child_frame_id: "jackal0/base_link"
pose:
  pose:
    position:
      x: -20.1356551559
      y: -13.244903557
      z: 0.996914136242
    orientation:
      x: 2.32169359657e-05
      y: 9.20216030541e-06
      z: -0.937717921595
      w: 0.347397609226
  covariance: [0.014010005961637576, -1.4106201624046806e-15, -3.1446680528919053e-11, 8.787599197658024e-23, 8.967851862590598e-20, 1.4529299479897632e-16, -1.410620797679391e-15, 0.01401000596163802, -2.6734179593572228e-11, -5.8452022318402555e-22, 7.701715056817976e-20, -1.682678882534359e-16, -3.14466805289191e-11, -2.673417959357221e-11, 34.79598854841314, 6.179228289665148e-18, -2.3152304263331125e-15, -5.61970484121057e-24, 8.787599197658025e-23, -5.845202231840255e-22, 6.179228289665147e-18, 6.001041612970389e-05, 4.186530430939891e-24, -9.231717763192956e-15, 8.967851862590598e-20, 7.701715056817974e-20, -2.3152304263331125e-15, 4.186530666089989e-24, 6.001041612970484e-05, 8.234529708251674e-20, 1.4529299479897632e-16, -1.6826788825343595e-16, -5.619704841210569e-24, -9.231717763192954e-15, 8.234529708251654e-20, 0.00012000100399306763]
twist:
  twist:
    linear:
      x: 0.00012798002222
      y: 1.17954468292e-07
      z: -7.49017210393e-12
    angular:
      x: -0.000338570204958
      y: -0.000453056023861
      z: 7.22623910807e-05
  covariance: [0.0006090474790525907, 1.6684125528715502e-20, -6.210623646925472e-15, 1.9045127202416064e-60, -4.1948099051218067e-57, -2.0715409747252938e-60, 1.668418864444804e-20, 0.0006090474790525904, -3.7344762155770527e-16, -3.22647535117781e-58, 4.0267499679988195e-59, 4.7541438691473253e-57, -6.210623646925472e-15, -3.734476215577087e-16, 0.0006926061998511662, -1.0714662895251014e-63, -2.5274167199878534e-61, 1.73547369296366e-62, 1.9045127202416363e-60, -3.22647535117781e-58, -1.071466289525091e-63, 2.0995049384268388e-05, 3.670607967462769e-28, -4.175388440143475e-22, -4.1948099051218084e-57, 4.026749967998671e-59, -2.5274167199878537e-61, 3.6706079674619266e-28, 2.0995049384268388e-05, -1.8158595005445952e-24, -2.0715409747249517e-60, 4.754143869147324e-57, 1.735473692963647e-62, -4.1753884401434764e-22, -1.815859500544596e-24, 4.094156235003835e-05]
---
header: panel5 1
  seq: 15455
  stamp:
    secs: 309
    nsecs: 844000000
  frame_id: "map"
child_frame_id: "jackal0/base_link"
pose:
  pose:
    position:
      x: 20.5100123964
      y: 23.8557053672
      z: 1.004506237
    orientation:
      x: 1.75963504391e-05
      y: 1.6011334027e-05
      z: -0.797211886601
      w: 0.603699600212
  covariance: [0.04223371027548418, -5.567873259705625e-15, -3.218326023643601e-11, -2.5632578591081875e-20, 1.6310631367427502e-19, 1.0598506156017247e-15, -5.567873352349854e-15, 0.042233710275466546, -1.3200752467853257e-10, 7.288244232586908e-21, 5.789642236014782e-19, -2.9862724074515346e-16, -3.218326023643599e-11, -1.32007524678533e-10, 18.559114382147836, -1.2396123664211656e-18, -1.152456857671709e-14, 4.508263592047044e-23, -2.563257859108186e-20, 7.288244232586907e-21, -1.2396123664211654e-18, 0.0001200104280693256, 2.096235977125059e-23, -1.863343892485796e-14, 1.63106313674275e-19, 5.789642236014783e-19, -1.152456857671709e-14, 2.0962360555953443e-23, 0.00012001042806932747, 4.2719296987450624e-19, 1.0598506156017249e-15, -2.986272407451535e-16, 4.5082635920470426e-23, -1.863343892485796e-14, 4.2719296987450624e-19, 0.00024000101595998197]
twist:
  twist:
    linear:
      x: 0.000153841796718
      y: -9.86914401513e-09
      z: -2.90316536228e-12
    angular:
      x: -0.000647290921568
      y: -0.000466272011271
      z: 0.000168601050984
  covariance: [0.0005165024160158683, 1.4602046007489187e-21, -1.6760226994932522e-15, 2.227648290610657e-125, -2.512073290229541e-121, 3.0226831297664786e-131, 1.4602118273452466e-21, 0.0005165024160158683, -3.545050976248073e-17, -1.5330152737817612e-122, -7.722691300038839e-123, 1.2788936837581475e-129, -1.6760226994932518e-15, -3.545050976248078e-17, 0.0005899871177011854, -1.4607813636080235e-128, -1.462280780107335e-125, 3.085294297233708e-135, 2.2276482906110625e-125, -1.5330152737817663e-122, -1.460781363608019e-128, 4.099504936602429e-05, 8.055144914202193e-24, -9.32688058638883e-19, -2.512073290229542e-121, -7.722691300038791e-123, -1.4622807801073345e-125, 8.055144914192952e-24, 4.099504936602429e-05, -7.48651828450542e-20, 3.0226831297664146e-131, 1.2788936837581475e-129, 3.0852942972336936e-135, -9.326880586388827e-19, -7.486518284505417e-20, 8.07794133495674e-05]
---
header: panel5 2
  seq: 17661
  stamp:
    secs: 353
    nsecs: 960000000
  frame_id: "map"
child_frame_id: "jackal0/base_link"
pose:
  pose:
    position:
      x: 22.3651635561
      y: 23.2803740645
      z: 1.00441178902
    orientation:
      x: 1.96272024492e-05
      y: 1.42912011445e-05
      z: -0.831987095182
      w: 0.554794982728
  covariance: [0.0478349973169271, -9.44130531385871e-15, -4.796118960497367e-11, 3.802546571276406e-26, 1.1335276526531044e-23, 2.5720346311409095e-21, -9.441304831226957e-15, 0.04783499731690909, -1.2256079256731035e-10, 1.427161544315901e-26, 2.7222097512205435e-23, -1.0738641761270424e-21, -4.796118960497363e-11, -1.2256079256731012e-10, 21.20790440897375, -5.740773521264819e-22, -6.091629828200431e-19, -2.778920933885672e-29, 3.8025465712764063e-26, 1.4271615443159014e-26, -5.74077352126482e-22, 1.041214750867779e-08, 4.2404967744822893e-32, 4.488371946341308e-25, 1.1335276526531044e-23, 2.722209751220542e-23, -6.091629828200432e-19, 4.2404965635254273e-32, 1.041214750867779e-08, 4.1973469641020857e-29, 2.5720346311409087e-21, -1.0738641761270424e-21, -2.778920933885671e-29, 4.488371946341307e-25, 4.197346964101799e-29, 9.99999166668332e-10]
twist:
  twist:
    linear:
      x: 0.000145312720539
      y: -1.73977666288e-07
      z: -6.66988546731e-13
    angular:
      x: 0.00163340857926
      y: -0.000427590338682
      z: -0.000968644401287
  covariance: [0.0015571127257114391, 2.4294907404006893e-20, -1.608906896027954e-14, 5.2477250990168625e-139, -9.449409782205894e-135, -3.523641372005285e-146, 2.4294938360689165e-20, 0.001557112725711439, -7.321182763386653e-16, -3.1984335133395413e-136, -1.6436491539502897e-135, 1.0012977674270774e-144, -1.6089068960279545e-14, -7.321182763386668e-16, 0.002194884003873728, -1.1738614374676611e-141, -6.804026906491747e-139, 1.2781087919985063e-150, 5.247725099016488e-139, -3.1984335133395336e-136, -1.1738614374676643e-141, 9.950493836041618e-07, 1.6095402493950337e-27, -4.05734641686081e-22, -9.449409782205924e-135, -1.643649153950296e-135, -6.804026906491753e-139, 1.6095402493948339e-27, 9.950493836041618e-07, -8.354447407408512e-24, -3.523641372005296e-146, 1.001297767427077e-144, 1.27810879199852e-150, -4.0573464168608087e-22, -8.35444740740851e-24, 9.97512422407341e-07]
---
header: panel5 3
  seq: 19998
  stamp:
    secs: 400
    nsecs: 700000000
  frame_id: "map"
child_frame_id: "jackal0/base_link"
pose:
  pose:
    position:
      x: 24.056632582
      y: 22.2466261641
      z: 1.00430346083
    orientation:
      x: 2.22462085805e-05
      y: 9.9447249771e-06
      z: -0.916769000947
      w: 0.399417824225
  covariance: [0.03482463813330225, -9.564152025166166e-15, -5.419218187211827e-11, 2.1368462879730527e-20, 1.337095587867744e-19, 3.3603079466434926e-16, -9.564151973169051e-15, 0.03482463813330085, -6.220340076152001e-11, -1.9851352618757213e-20, 1.4380609520337828e-19, -3.1248805904503554e-16, -5.4192181872118034e-11, -6.220340076151982e-11, 24.014225787414812, -3.565536470150119e-19, -4.7782837858659596e-15, 4.893303049012566e-25, 2.136846287973051e-20, -1.9851352618757207e-20, -3.565536470150118e-19, 1.0412147511112682e-08, 4.827120250468347e-28, -5.298373372293416e-20, 1.3370955878677446e-19, 1.438060952033783e-19, -4.77828378586596e-15, 4.827120152863344e-28, 1.0412147511112776e-08, 5.240892674704416e-25, 3.3603079466434917e-16, -3.124880590450355e-16, 4.893303049012565e-25, -5.298373372293418e-20, 5.240892674704412e-25, 9.999991666796107e-10]
twist:
  twist:
    linear:
      x: 0.000143432859211
      y: -1.39375303507e-08
      z: 1.29890081014e-13
    angular:
      x: 8.52269843732e-05
      y: 0.000911199767115
      z: -0.001012903793
  covariance: [0.0010410633422621093, 1.9022134463759846e-20, -9.394229796911201e-15, -7.383025491667502e-111, -5.791233057797149e-107, 6.317416308646055e-117, 1.9022051129764605e-20, 0.001041063342262109, -5.396968955294957e-16, 3.1166262033493294e-108, 3.3228869827093187e-108, 1.292845254432432e-113, -9.394229796911203e-15, -5.396968955294961e-16, 0.0013627025601621874, 1.1268611723928017e-113, -3.844975366789907e-111, 4.9205497568924536e-119, -7.383025491666776e-111, 3.1166262033493263e-108, 1.126861172392796e-113, 9.950493658337363e-07, 6.28168912041516e-24, -7.744293078869453e-19, -5.79123305779714e-107, 3.322886982709344e-108, -3.844975366789909e-111, 6.281689120414266e-24, 9.950493658337363e-07, -7.080198429308063e-20, 6.317416308650156e-117, 1.2928452544324317e-113, 4.9205497568924233e-119, -7.744293078869453e-19, -7.080198429308066e-20, 9.975110634107195e-07]
---
header: panel4 1
  seq: 23815
  stamp:
    secs: 477
    nsecs:  40000000
  frame_id: "map"
child_frame_id: "jackal0/base_link"
pose:
  pose:
    position:
      x: 26.7555436687
      y: 20.4141084378
      z: 1.00402078887
    orientation:
      x: 1.82444976951e-05
      y: 1.76259411075e-05
      z: -0.737665735306
      w: 0.675166099795
  covariance: [0.002001838477624774, -9.552035794521895e-17, 9.431569826778772e-13, -1.6328546618806632e-20, 2.688246250144064e-20, 5.291751855539206e-16, -9.552039302622987e-17, 0.0020018384776237493, -5.744250403944463e-12, 7.180193746382769e-22, 3.032805297796613e-19, -4.568842147126527e-17, 9.4315698267788e-13, -5.7442504039444395e-12, 28.597800171123733, 1.251977692370258e-17, -5.5308181425705164e-15, 7.137916187439566e-24, -1.632854661880663e-20, 7.180193746382765e-22, 1.251977692370258e-17, 1.0412147511112854e-08, 1.8838742053100307e-27, 2.6442339744625583e-20, 2.688246250144064e-20, 3.0328052977966123e-19, -5.5308181425705164e-15, 1.8838740644324722e-27, 1.0412147511112794e-08, 1.6931520267886448e-24, 5.291751855539205e-16, -4.568842147126525e-17, 7.137916187439564e-24, 2.6442339744625586e-20, 1.693152026788645e-24, 9.999991666796107e-10]
twist:
  twist:
    linear:
      x: 0.00016596860087
      y: 3.94107287108e-07
      z: -1.63489381572e-11
    angular:
      x: -0.00143802298982
      y: 0.000490268994829
      z: -0.000201114338819
  covariance: [0.0010438811321866466, -1.0795451323762023e-19, -2.387263389616539e-13, -7.024040165181999e-32, -6.480950222196303e-28, 4.021890347806245e-28, -1.0795464492130216e-19, 0.0010438811321866327, 1.0048306751544801e-15, 1.6441798804492437e-29, 4.7109273729616787e-29, 3.311122744598294e-24, -2.3872633896165393e-13, 1.004830675154472e-15, 0.001363776064889982, -6.778431950101437e-36, -3.0110913467731985e-32, -6.8941006981619375e-31, -7.024040165181991e-32, 1.644179880449244e-29, -6.778431950101474e-36, 9.9504936583375e-07, 1.1175285996995586e-24, -9.393065309394625e-19, -6.480950222196301e-28, 4.7109273729616714e-29, -3.0110913467731974e-32, 1.1175285996861098e-24, 9.9504936583375e-07, -1.0318374926836558e-20, 4.0218903478067223e-28, 3.3111227445982925e-24, -6.894100698162024e-31, -9.39306530939463e-19, -1.0318374926836563e-20, 9.975110634107265e-07]
---
header: panel5 2
  seq: 25871
  stamp:
    secs: 518
    nsecs: 160000000
  frame_id: "map"
child_frame_id: "jackal0/base_link"
pose:
  pose:
    position:
      x: 28.6226780626
      y: 20.2136747002
      z: 1.00392482494
    orientation:
      x: 1.80785404276e-05
      y: 1.6201647421e-05
      z: -0.770497835983
      w: 0.637442612441
  covariance: [0.008005037936776604, -1.0299370584494577e-15, -2.5702523662964218e-12, 1.0397238416677839e-20, 4.086362396349073e-20, 4.50186351817518e-16, -1.0299371421998594e-15, 0.008005037936771547, -1.8173673298122834e-11, -2.139320039538454e-21, 2.1427409665333489e-19, -8.55073479346898e-17, -2.5702523662964157e-12, -1.817367329812278e-11, 31.06672646731243, 3.5350052526782885e-18, -4.7716260824517344e-15, -1.5461074381285767e-24, 1.0397238416677833e-20, -2.1393200395384535e-21, 3.535005252678288e-18, 1.041214751111274e-08, 6.959341319515768e-28, -1.9379604352513154e-20, 4.086362396349072e-20, 2.1427409665333486e-19, -4.771626082451734e-15, 6.9593411955962205e-28, 1.0412147511112778e-08, 7.134298155452837e-25, 4.50186351817518e-16, -8.550734793468978e-17, -1.5461074381285769e-24, -1.937960435251316e-20, 7.134298155452838e-25, 9.999991666796107e-10]
twist:
  twist:
    linear:
      x: 0.000143110884843
      y: 1.34740321729e-07
      z: 2.04573411754e-12
    angular:
      x: 0.000768016450446
      y: 0.00079534221704
      z: -0.00145416536486
  covariance: [0.0010252135968448171, 2.227326838541088e-20, -1.963118251403111e-14, 9.47571623814517e-48, -9.144405203623198e-45, -3.552789289801586e-46, 2.2273338464174462e-20, 0.0010252135968448165, -6.283898415216381e-16, -3.767082623159815e-46, 6.868575719129751e-46, 3.608811705382688e-43, -1.9631182514031124e-14, -6.283898415216391e-16, 0.0013522858367324858, -2.056926405677676e-52, -5.612647118250722e-49, 7.337806111576192e-49, 9.475716238145264e-48, -3.7670826231598166e-46, -2.056926405677695e-52, 9.950493658337363e-07, 2.4950365679237812e-24, -8.22476677429694e-19, -9.144405203623193e-45, 6.868575719129713e-46, -5.612647118250723e-49, 2.4950365679225807e-24, 9.95049365833736e-07, -2.6373246321498355e-20, -3.552789289801812e-46, 3.6088117053826876e-43, 7.33780611157623e-49, -8.224766774296941e-19, -2.6373246321498352e-20, 9.975110634107195e-07]
---
header: panel5 3
  seq: 27540
  stamp:
    secs: 551
    nsecs: 540000000
  frame_id: "map"
child_frame_id: "jackal0/base_link"
pose:
  pose:
    position:
      x: 30.2091996653
      y: 19.6157033599
      z: 1.00382852564
    orientation:
      x: 1.82947316693e-05
      y: 1.64787977269e-05
      z: -0.789263559187
      w: 0.614054585141
  covariance: [0.0270252288029441, -1.179758215041901e-15, -1.8645709600000323e-11, -9.881927824831182e-26, 4.952294364340208e-24, 1.8094584221372026e-21, -1.1797596000684934e-15, 0.027025228802941403, -9.513718160784137e-11, 2.7105108190493324e-26, 1.9520362258244015e-23, -4.591433295033118e-22, -1.864570960000035e-11, -9.51371816078412e-11, 33.07091453306075, -3.997678274664913e-23, -4.082635794992166e-19, -2.552281681538178e-29, -9.88192782483118e-26, 2.710510819049333e-26, -3.9976782746649114e-23, 1.0412147508677788e-08, 1.5472178739388951e-31, 4.5627841695705856e-24, 4.952294364340208e-24, 1.9520362258244004e-23, -4.0826357949921656e-19, 1.5472178180859753e-31, 1.0412147508677788e-08, 1.511580484876823e-28, 1.8094584221372033e-21, -4.591433295033119e-22, -2.552281681538173e-29, 4.562784169570585e-24, 1.511580484876794e-28, 9.99999166668332e-10]
twist:
  twist:
    linear:
      x: 9.11042624933e-05
      y: -9.73713281008e-09
      z: 5.63742024532e-12
    angular:
      x: -0.000925155394274
      y: -0.000193102930683
      z: -0.000152139689296
  covariance: [0.001642064978677054, 1.297920197574253e-19, -3.1913095101232707e-14, 2.0569659704990316e-89, -2.8614908847060693e-86, -2.945808173094318e-93, 1.2979203679795081e-19, 0.001642064978677053, -3.5262547395578466e-15, -1.8558582674701576e-87, -4.173776713847446e-87, 4.1981552816894385e-90, -3.191309510123263e-14, -3.526254739557844e-15, 0.0022695542308194218, -1.4194382210742667e-92, -2.1809670648345003e-90, 3.5377302152953427e-95, 2.0569659704990574e-89, -1.855858267470158e-87, -1.4194382210742677e-92, 9.950493836041618e-07, 2.959527972728547e-27, -4.1145303200387285e-22, -2.8614908847060682e-86, -4.173776713847451e-87, -2.1809670648345025e-90, 2.9595279727285227e-27, 9.950493836041618e-07, -1.5142419355466132e-23, -2.945808173094358e-93, 4.198155281689438e-90, 3.537730215295346e-95, -4.114530320038728e-22, -1.514241935546613e-23, 9.97512422407341e-07]
---
